linear:
  x: 0.0
  y: 0.0
  z: 0.0
angular:
  x: 0.0
  y: 0.0
  z: 0.0
---
linear:
  x: 0.10233802990129326
  y: 0.0
  z: 0.0
angular:
  x: 0.0
  y: 0.0
  z: -0.09068340517194913
---
linear:
  x: 0.10233802990129326
  y: 0.0
  z: 0.0
angular:
  x: 0.0
  y: 0.0
  z: -0.09068340517194913
---
linear:
  x: 0.10233802990129326
  y: 0.0
  z: 0.0
angular:
  x: 0.0
  y: 0.0
  z: -0.09068340517194913
---
linear:
  x: 0.1023301499975281
  y: 0.0
  z: 0.0
angular:
  x: 0.0
  y: 0.0
  z: -0.09035605567893562
---
linear:
  x: 0.10186476081734219
  y: 0.0
  z: 0.0
angular:
  x: 0.0
  y: 0.0
  z: -0.0453242425083321
---
linear:
  x: 0.10160222861722612
  y: 0.0
  z: 0.0
angular:
  x: 0.0
  y: 0.0
  z: -0.026195546015029457
---
linear:
  x: 0.10143375700802958
  y: 0.0
  z: 0.0
angular:
  x: 0.0
  y: 0.0
  z: -0.00808518921671306
---
linear:
  x: 0.10135436293268425
  y: 0.0
  z: 0.0
angular:
  x: 0.0
  y: 0.0
  z: 0.012435027144093171
---
linear:
  x: 0.10132546136508025
  y: 0.0
  z: 0.0
angular:
  x: 0.0
  y: 0.0
  z: 0.028710423143928483
---
linear:
  x: 0.10132154140924898
  y: 0.0
  z: 0.0
angular:
  x: 0.0
  y: 0.0
  z: 0.02492045446523397
---
linear:
  x: 0.1013592391327841
  y: 0.0
  z: 0.0
angular:
  x: 0.0
  y: 0.0
  z: 0.019313088239090174
---
linear:
  x: 0.10138374725948518
  y: 0.0
  z: 0.0
angular:
  x: 0.0
  y: 0.0
  z: 0.011491777059963553
---
linear:
  x: 0.1013933057661264
  y: 0.0
  z: 0.0
angular:
  x: 0.0
  y: 0.0
  z: 0.009115757011075587
---
linear:
  x: 0.10141986262399275
  y: 0.0
  z: 0.0
angular:
  x: 0.0
  y: 0.0
  z: 0.004682804601676447
---
linear:
  x: 0.10142186787461692
  y: 0.0
  z: 0.0
angular:
  x: 0.0
  y: 0.0
  z: 0.007840360894398015
---
linear:
  x: 0.1014211463883167
  y: 0.0
  z: 0.0
angular:
  x: 0.0
  y: 0.0
  z: 0.0068734297689992336
---
linear:
  x: 0.1014211463883167
  y: 0.0
  z: 0.0
angular:
  x: 0.0
  y: 0.0
  z: 0.0068734297689992336
---
linear:
  x: 0.1014206857209286
  y: 0.0
  z: 0.0
angular:
  x: 0.0
  y: 0.0
  z: 0.006177370047957758
---
linear:
  x: 0.10141082585063517
  y: 0.0
  z: 0.0
angular:
  x: 0.0
  y: 0.0
  z: 0.01389872364697922
---
linear:
  x: 0.10141082585063517
  y: 0.0
  z: 0.0
angular:
  x: 0.0
  y: 0.0
  z: 0.01389872364697922
---
linear:
  x: 0.10142715179602216
  y: 0.0
  z: 0.0
angular:
  x: 0.0
  y: 0.0
  z: 0.012870954724986365
---
linear:
  x: 0.10143864920055937
  y: 0.0
  z: 0.0
angular:
  x: 0.0
  y: 0.0
  z: 0.006891610716678198
---
linear:
  x: 0.10145509201650249
  y: 0.0
  z: 0.0
angular:
  x: 0.0
  y: 0.0
  z: 0.005616847521447977
---
linear:
  x: 0.10146114792745842
  y: 0.0
  z: 0.0
angular:
  x: 0.0
  y: 0.0
  z: 0.0062154495121591324
---
linear:
  x: 0.10146057503741501
  y: 0.0
  z: 0.0
angular:
  x: 0.0
  y: 0.0
  z: 0.0052286817088040595
---
linear:
  x: 0.10146527704576758
  y: 0.0
  z: 0.0
angular:
  x: 0.0
  y: 0.0
  z: 0.002870311438671644
---
linear:
  x: 0.1014611550401453
  y: 0.0
  z: 0.0
angular:
  x: 0.0
  y: 0.0
  z: 0.006226717938839284
---
linear:
  x: 0.10145404841214012
  y: 0.0
  z: 0.0
angular:
  x: 0.0
  y: 0.0
  z: 0.0033130476020317963
---
linear:
  x: 0.10145387906144299
  y: 0.0
  z: 0.0
angular:
  x: 0.0
  y: 0.0
  z: 0.002763660917522387
---
linear:
  x: 0.10146044112283695
  y: 0.0
  z: 0.0
angular:
  x: 0.0
  y: 0.0
  z: 0.004969848736275682
---
linear:
  x: 0.10145551340479005
  y: 0.0
  z: 0.0
angular:
  x: 0.0
  y: 0.0
  z: 0.006313141090947581
---
linear:
  x: 0.10144950564167039
  y: 0.0
  z: 0.0
angular:
  x: 0.0
  y: 0.0
  z: 0.005850245980839732
---
linear:
  x: 0.10144522748688126
  y: 0.0
  z: 0.0
angular:
  x: 0.0
  y: 0.0
  z: 0.00794965977076931
---
linear:
  x: 0.10144568587918235
  y: 0.0
  z: 0.0
angular:
  x: 0.0
  y: 0.0
  z: 0.008499064814612774
---
linear:
  x: 0.10144396911938898
  y: 0.0
  z: 0.0
angular:
  x: 0.0
  y: 0.0
  z: 0.006195849679107765
---
linear:
  x: 0.10145001860237463
  y: 0.0
  z: 0.0
angular:
  x: 0.0
  y: 0.0
  z: 0.006658667365782271
---
linear:
  x: 0.10145071037252323
  y: 0.0
  z: 0.0
angular:
  x: 0.0
  y: 0.0
  z: 0.0076141463672543515
---
linear:
  x: 0.10145106713626771
  y: 0.0
  z: 0.0
angular:
  x: 0.0
  y: 0.0
  z: 0.008062773008007272
---
linear:
  x: 0.10144811560185324
  y: 0.0
  z: 0.0
angular:
  x: 0.0
  y: 0.0
  z: 0.002611858404782335
---
linear:
  x: 0.10144841520314798
  y: 0.0
  z: 0.0
angular:
  x: 0.0
  y: 0.0
  z: 0.0035676698106458364
---
linear:
  x: 0.10144279892902908
  y: 0.0
  z: 0.0
angular:
  x: 0.0
  y: 0.0
  z: 0.0039138162804035976
---
linear:
  x: 0.10143111758587647
  y: 0.0
  z: 0.0
angular:
  x: 0.0
  y: 0.0
  z: 0.0036507506838382815
---
linear:
  x: 0.10141594396332398
  y: 0.0
  z: 0.0
angular:
  x: 0.0
  y: 0.0
  z: 0.0077900194065952085
---
linear:
  x: 0.1014035730653114
  y: 0.0
  z: 0.0
angular:
  x: 0.0
  y: 0.0
  z: 0.007080782356290666
---
linear:
  x: 0.10139863553041809
  y: 0.0
  z: 0.0
angular:
  x: 0.0
  y: 0.0
  z: 0.00838549454071247
---
linear:
  x: 0.10139336691603207
  y: 0.0
  z: 0.0
angular:
  x: 0.0
  y: 0.0
  z: 0.009181672974105413
---
linear:
  x: 0.10138000228538036
  y: 0.0
  z: 0.0
angular:
  x: 0.0
  y: 0.0
  z: 0.007627887048424271
---
linear:
  x: 0.10137243082751204
  y: 0.0
  z: 0.0
angular:
  x: 0.0
  y: 0.0
  z: 0.01218072628957703
---
linear:
  x: 0.10132620793756293
  y: 0.0
  z: 0.0
angular:
  x: 0.0
  y: 0.0
  z: 0.009462463374093746
---
linear:
  x: 0.10130959462834353
  y: 0.0
  z: 0.0
angular:
  x: 0.0
  y: 0.0
  z: 0.011594096549609254
---
linear:
  x: 0.10130305943174212
  y: 0.0
  z: 0.0
angular:
  x: 0.0
  y: 0.0
  z: 0.016007210596347382
---
linear:
  x: 0.10128817166956004
  y: 0.0
  z: 0.0
angular:
  x: 0.0
  y: 0.0
  z: 0.018482766054325566
---
linear:
  x: 0.10126797624788848
  y: 0.0
  z: 0.0
angular:
  x: 0.0
  y: 0.0
  z: 0.008383956326384705
---
linear:
  x: 0.10125900860819162
  y: 0.0
  z: 0.0
angular:
  x: 0.0
  y: 0.0
  z: 0.01220572510787838
---
linear:
  x: 0.10123517426593086
  y: 0.0
  z: 0.0
angular:
  x: 0.0
  y: 0.0
  z: 0.013973446183796541
---
linear:
  x: 0.10118085282656138
  y: 0.0
  z: 0.0
angular:
  x: 0.0
  y: 0.0
  z: 0.013225172764927715
---
linear:
  x: 0.10112188243081553
  y: 0.0
  z: 0.0
angular:
  x: 0.0
  y: 0.0
  z: 0.018925076609372187
---
linear:
  x: 0.10106853714560729
  y: 0.0
  z: 0.0
angular:
  x: 0.0
  y: 0.0
  z: 0.031043165938849804
---
linear:
  x: 0.10101109468353052
  y: 0.0
  z: 0.0
angular:
  x: 0.0
  y: 0.0
  z: 0.03312742758196818
---
linear:
  x: 0.10101109468353052
  y: 0.0
  z: 0.0
angular:
  x: 0.0
  y: 0.0
  z: 0.03312742758196818
---
linear:
  x: 0.10079756505265634
  y: 0.0
  z: 0.0
angular:
  x: 0.0
  y: 0.0
  z: 0.042243372163668975
---
linear:
  x: 0.10066975798910781
  y: 0.0
  z: 0.0
angular:
  x: 0.0
  y: 0.0
  z: 0.033810502091686054
---
linear:
  x: 0.10054361613008359
  y: 0.0
  z: 0.0
angular:
  x: 0.0
  y: 0.0
  z: 0.03709643064593846
---
linear:
  x: 0.10036144276378611
  y: 0.0
  z: 0.0
angular:
  x: 0.0
  y: 0.0
  z: 0.028638867772130046
---
linear:
  x: 0.10025168592823436
  y: 0.0
  z: 0.0
angular:
  x: 0.0
  y: 0.0
  z: 0.019059153303133188
---
linear:
  x: 0.10012096863250708
  y: 0.0
  z: 0.0
angular:
  x: 0.0
  y: 0.0
  z: 0.01912275811911668
---
linear:
  x: 0.09993294136142833
  y: 0.0
  z: 0.0
angular:
  x: 0.0
  y: 0.0
  z: 0.015912441064798045
---
linear:
  x: 0.08621056828842823
  y: 0.0
  z: 0.0
angular:
  x: 0.0
  y: 0.0
  z: 0.07332998453459386
---
linear:
  x: 0.08619350334896587
  y: 0.0
  z: 0.0
angular:
  x: 0.0
  y: 0.0
  z: 0.0895893738153713
---
linear:
  x: 0.08619350334896587
  y: 0.0
  z: 0.0
angular:
  x: 0.0
  y: 0.0
  z: 0.0895893738153713
---
linear:
  x: 0.08621848517625078
  y: 0.0
  z: 0.0
angular:
  x: 0.0
  y: 0.0
  z: 0.09593337702283965
---
linear:
  x: 0.08636612409387714
  y: 0.0
  z: 0.0
angular:
  x: 0.0
  y: 0.0
  z: 0.11648624103182582
---
linear:
  x: 0.08644219820475794
  y: 0.0
  z: 0.0
angular:
  x: 0.0
  y: 0.0
  z: 0.1243847211337189
---
linear:
  x: 0.08668208717682585
  y: 0.0
  z: 0.0
angular:
  x: 0.0
  y: 0.0
  z: 0.14535305117812686
---
linear:
  x: 0.08675921994424698
  y: 0.0
  z: 0.0
angular:
  x: 0.0
  y: 0.0
  z: 0.1498134899433474
---
linear:
  x: 0.08682834885751389
  y: 0.0
  z: 0.0
angular:
  x: 0.0
  y: 0.0
  z: 0.15372775287007512
---
linear:
  x: 0.10046619503339563
  y: 0.0
  z: 0.0
angular:
  x: 0.0
  y: 0.0
  z: 0.10163828780612517
---
linear:
  x: 0.10050364968834327
  y: 0.0
  z: 0.0
angular:
  x: 0.0
  y: 0.0
  z: 0.09832504811872515
---
linear:
  x: 0.10068126421165043
  y: 0.0
  z: 0.0
angular:
  x: 0.0
  y: 0.0
  z: 0.111953243761365
---
linear:
  x: 0.10086160930001056
  y: 0.0
  z: 0.0
angular:
  x: 0.0
  y: 0.0
  z: 0.1227525018009168
---
linear:
  x: 0.10098279058596629
  y: 0.0
  z: 0.0
angular:
  x: 0.0
  y: 0.0
  z: 0.1255110159999193
---
linear:
  x: 0.10094393512791072
  y: 0.0
  z: 0.0
angular:
  x: 0.0
  y: 0.0
  z: 0.11592564012942719
---
linear:
  x: 0.10094393512791072
  y: 0.0
  z: 0.0
angular:
  x: 0.0
  y: 0.0
  z: 0.11592564012942719
---
linear:
  x: 0.1009597726771018
  y: 0.0
  z: 0.0
angular:
  x: 0.0
  y: 0.0
  z: 0.11439341152114214
---
linear:
  x: 0.10095500648758318
  y: 0.0
  z: 0.0
angular:
  x: 0.0
  y: 0.0
  z: 0.08917583050548572
---
linear:
  x: 0.10093954620966109
  y: 0.0
  z: 0.0
angular:
  x: 0.0
  y: 0.0
  z: 0.06886503621499933
---
linear:
  x: 0.1009623004307758
  y: 0.0
  z: 0.0
angular:
  x: 0.0
  y: 0.0
  z: 0.0622991118571819
---
linear:
  x: 0.10095280165008175
  y: 0.0
  z: 0.0
angular:
  x: 0.0
  y: 0.0
  z: 0.05169944677544823
---
linear:
  x: 0.10100273797139964
  y: 0.0
  z: 0.0
angular:
  x: 0.0
  y: 0.0
  z: 0.042291488110643
---
linear:
  x: 0.10102902875009734
  y: 0.0
  z: 0.0
angular:
  x: 0.0
  y: 0.0
  z: 0.03204357347345748
---
linear:
  x: 0.10104931956332153
  y: 0.0
  z: 0.0
angular:
  x: 0.0
  y: 0.0
  z: 0.029395395004413093
---
linear:
  x: 0.10110046486967397
  y: 0.0
  z: 0.0
angular:
  x: 0.0
  y: 0.0
  z: 0.04165690536210236
---
linear:
  x: 0.1011450929089814
  y: 0.0
  z: 0.0
angular:
  x: 0.0
  y: 0.0
  z: 0.04977111402519096
---
linear:
  x: 0.10116847389704314
  y: 0.0
  z: 0.0
angular:
  x: 0.0
  y: 0.0
  z: 0.044337681014537084
---
linear:
  x: 0.10119501648295107
  y: 0.0
  z: 0.0
angular:
  x: 0.0
  y: 0.0
  z: 0.035496870100301364
---
linear:
  x: 0.10123525481157121
  y: 0.0
  z: 0.0
angular:
  x: 0.0
  y: 0.0
  z: 0.026836987967315082
---
linear:
  x: 0.1012786943761397
  y: 0.0
  z: 0.0
angular:
  x: 0.0
  y: 0.0
  z: 0.028204934823018078
---
linear:
  x: 0.1012933154566202
  y: 0.0
  z: 0.0
angular:
  x: 0.0
  y: 0.0
  z: 0.028746489141261437
---
linear:
  x: 0.10130485611984681
  y: 0.0
  z: 0.0
angular:
  x: 0.0
  y: 0.0
  z: 0.025903186545772127
---
linear:
  x: 0.10132863958014081
  y: 0.0
  z: 0.0
angular:
  x: 0.0
  y: 0.0
  z: 0.025206658048530076
---
linear:
  x: 0.10136938449725577
  y: 0.0
  z: 0.0
angular:
  x: 0.0
  y: 0.0
  z: 0.028605561561913337
---
linear:
  x: 0.10137045354810362
  y: 0.0
  z: 0.0
angular:
  x: 0.0
  y: 0.0
  z: 0.026768319074073562
---
linear:
  x: 0.10139890768894198
  y: 0.0
  z: 0.0
angular:
  x: 0.0
  y: 0.0
  z: 0.02346279017027491
---
linear:
  x: 0.10140964768109201
  y: 0.0
  z: 0.0
angular:
  x: 0.0
  y: 0.0
  z: 0.020134342165675594
---
linear:
  x: 0.10142457962144168
  y: 0.0
  z: 0.0
angular:
  x: 0.0
  y: 0.0
  z: 0.015197718130026436
---
linear:
  x: 0.10144263977141582
  y: 0.0
  z: 0.0
angular:
  x: 0.0
  y: 0.0
  z: 0.01885468885560935
---
linear:
  x: 0.10146023852586279
  y: 0.0
  z: 0.0
angular:
  x: 0.0
  y: 0.0
  z: 0.024236116576756592
---
linear:
  x: 0.10147794888638942
  y: 0.0
  z: 0.0
angular:
  x: 0.0
  y: 0.0
  z: 0.0266104279292508
---
linear:
  x: 0.1014861662674148
  y: 0.0
  z: 0.0
angular:
  x: 0.0
  y: 0.0
  z: 0.020491901585000253
---
linear:
  x: 0.10149981560764823
  y: 0.0
  z: 0.0
angular:
  x: 0.0
  y: 0.0
  z: 0.011746120115114533
---
linear:
  x: 0.1015128535699599
  y: 0.0
  z: 0.0
angular:
  x: 0.0
  y: 0.0
  z: 0.008418971432660646
---
linear:
  x: 0.10151369619119631
  y: 0.0
  z: 0.0
angular:
  x: 0.0
  y: 0.0
  z: 0.009353066014232693
---
linear:
  x: 0.1015220941155985
  y: 0.0
  z: 0.0
angular:
  x: 0.0
  y: 0.0
  z: 0.018981053236446745
---
linear:
  x: 0.10152712035307423
  y: 0.0
  z: 0.0
angular:
  x: 0.0
  y: 0.0
  z: 0.02381835760609599
---
linear:
  x: 0.10153962922305562
  y: 0.0
  z: 0.0
angular:
  x: 0.0
  y: 0.0
  z: 0.016716161540531647
---
linear:
  x: 0.10154714035300315
  y: 0.0
  z: 0.0
angular:
  x: 0.0
  y: 0.0
  z: 0.010648720316987801
---
linear:
  x: 0.10155132041225588
  y: 0.0
  z: 0.0
angular:
  x: 0.0
  y: 0.0
  z: 0.009604423830315383
---
linear:
  x: 0.10155437996043211
  y: 0.0
  z: 0.0
angular:
  x: 0.0
  y: 0.0
  z: 0.012348999416409188
---
linear:
  x: 0.10156353740161626
  y: 0.0
  z: 0.0
angular:
  x: 0.0
  y: 0.0
  z: 0.018243372337550183
---
linear:
  x: 0.10156313503555287
  y: 0.0
  z: 0.0
angular:
  x: 0.0
  y: 0.0
  z: 0.014897620590127818
---
linear:
  x: 0.10157553192837031
  y: 0.0
  z: 0.0
angular:
  x: 0.0
  y: 0.0
  z: 0.0126766668967974
---
linear:
  x: 0.10158928911688994
  y: 0.0
  z: 0.0
angular:
  x: 0.0
  y: 0.0
  z: 0.011465099113496063
---
linear:
  x: 0.10159854892102238
  y: 0.0
  z: 0.0
angular:
  x: 0.0
  y: 0.0
  z: 0.010790285546236315
---
linear:
  x: 0.10159571401464602
  y: 0.0
  z: 0.0
angular:
  x: 0.0
  y: 0.0
  z: 0.007786211598657606
---
linear:
  x: 0.10160861628383643
  y: 0.0
  z: 0.0
angular:
  x: 0.0
  y: 0.0
  z: 0.004807892750749875
---
linear:
  x: 0.10160370508326003
  y: 0.0
  z: 0.0
angular:
  x: 0.0
  y: 0.0
  z: 0.004794500298463709
---
linear:
  x: 0.10160360875857283
  y: 0.0
  z: 0.0
angular:
  x: 0.0
  y: 0.0
  z: 0.01087689110911579
---
linear:
  x: 0.101602211286176
  y: 0.0
  z: 0.0
angular:
  x: 0.0
  y: 0.0
  z: 0.0196420624490195
---
linear:
  x: 0.1016100001832871
  y: 0.0
  z: 0.0
angular:
  x: 0.0
  y: 0.0
  z: 0.015623897760390639
---
linear:
  x: 0.10161648615102348
  y: 0.0
  z: 0.0
angular:
  x: 0.0
  y: 0.0
  z: 0.009063478287325073
---
linear:
  x: 0.10163320528092581
  y: 0.0
  z: 0.0
angular:
  x: 0.0
  y: 0.0
  z: 0.005755102123373343
---
linear:
  x: 0.10163240128125746
  y: 0.0
  z: 0.0
angular:
  x: 0.0
  y: 0.0
  z: 0.004159288035087263
---
linear:
  x: 0.10163190638343123
  y: 0.0
  z: 0.0
angular:
  x: 0.0
  y: 0.0
  z: 0.002749675693724344
---
linear:
  x: 0.10163248183971296
  y: 0.0
  z: 0.0
angular:
  x: 0.0
  y: 0.0
  z: 0.004345682615609143
---
linear:
  x: 0.10163055546814048
  y: 0.0
  z: 0.0
angular:
  x: 0.0
  y: 0.0
  z: 0.0086398058025113
---
linear:
  x: 0.10162200316271824
  y: 0.0
  z: 0.0
angular:
  x: 0.0
  y: 0.0
  z: 0.009765652366834477
---
linear:
  x: 0.10162804789828668
  y: 0.0
  z: 0.0
angular:
  x: 0.0
  y: 0.0
  z: 0.01093049136247304
---
linear:
  x: 0.10163024962669952
  y: 0.0
  z: 0.0
angular:
  x: 0.0
  y: 0.0
  z: 0.008284183059834336
---
linear:
  x: 0.10164123456763732
  y: 0.0
  z: 0.0
angular:
  x: 0.0
  y: 0.0
  z: 0.009905667138232736
---
linear:
  x: 0.10164190631880532
  y: 0.0
  z: 0.0
angular:
  x: 0.0
  y: 0.0
  z: 0.004361177297882928
---
linear:
  x: 0.10164748275216368
  y: 0.0
  z: 0.0
angular:
  x: 0.0
  y: 0.0
  z: 0.006076896442739344
---
linear:
  x: 0.10164730592619971
  y: 0.0
  z: 0.0
angular:
  x: 0.0
  y: 0.0
  z: 0.005783554963310561
---
linear:
  x: 0.10164686451470084
  y: 0.0
  z: 0.0
angular:
  x: 0.0
  y: 0.0
  z: 0.0049763857247985144
---
linear:
  x: 0.10164686451470084
  y: 0.0
  z: 0.0
angular:
  x: 0.0
  y: 0.0
  z: 0.0049763857247985144
---
linear:
  x: 0.10164863840459826
  y: 0.0
  z: 0.0
angular:
  x: 0.0
  y: 0.0
  z: 0.007724416624124894
---
linear:
  x: 0.1016446275821795
  y: 0.0
  z: 0.0
angular:
  x: 0.0
  y: 0.0
  z: 0.008518475478318523
---
linear:
  x: 0.10164535969607794
  y: 0.0
  z: 0.0
angular:
  x: 0.0
  y: 0.0
  z: 0.009325736027212785
---
linear:
  x: 0.10165200680386066
  y: 0.0
  z: 0.0
angular:
  x: 0.0
  y: 0.0
  z: 0.005884980711436456
---
linear:
  x: 0.1016559095978391
  y: 0.0
  z: 0.0
angular:
  x: 0.0
  y: 0.0
  z: 0.0045590590806734695
---
linear:
  x: 0.10165485314188033
  y: 0.0
  z: 0.0
angular:
  x: 0.0
  y: 0.0
  z: -6.691247313759006e-06
---
linear:
  x: 0.10165945828146013
  y: 0.0
  z: 0.0
angular:
  x: 0.0
  y: 0.0
  z: -0.0008010209158938587
---
linear:
  x: 0.10165706606698217
  y: 0.0
  z: 0.0
angular:
  x: 0.0
  y: 0.0
  z: 0.006598277526580858
---
linear:
  x: 0.1016431261198536
  y: 0.0
  z: 0.0
angular:
  x: 0.0
  y: 0.0
  z: 0.00655907058539487
---
linear:
  x: 0.10164841050502729
  y: 0.0
  z: 0.0
angular:
  x: 0.0
  y: 0.0
  z: 0.012124133134751643
---
linear:
  x: 0.10164757037650451
  y: 0.0
  z: 0.0
angular:
  x: 0.0
  y: 0.0
  z: 0.0062171320690270395
---
linear:
  x: 0.10165856712348731
  y: 0.0
  z: 0.0
angular:
  x: 0.0
  y: 0.0
  z: 0.00854799649909039
---
linear:
  x: 0.10165558263723345
  y: 0.0
  z: 0.0
angular:
  x: 0.0
  y: 0.0
  z: 0.0037884502147641132
---
linear:
  x: 0.10165911898861305
  y: 0.0
  z: 0.0
angular:
  x: 0.0
  y: 0.0
  z: 0.009161067596345312
---
linear:
  x: 0.10165849131610881
  y: 0.0
  z: 0.0
angular:
  x: 0.0
  y: 0.0
  z: 0.008460311366147446
---
linear:
  x: 0.10166397274096349
  y: 0.0
  z: 0.0
angular:
  x: 0.0
  y: 0.0
  z: -4.224294387696522e-05
---
linear:
  x: 0.10166855319606603
  y: 0.0
  z: 0.0
angular:
  x: 0.0
  y: 0.0
  z: 0.001078310719029554
---
linear:
  x: 0.10166922470097024
  y: 0.0
  z: 0.0
angular:
  x: 0.0
  y: 0.0
  z: 0.003791089997625551
---
linear:
  x: 0.10165028556517047
  y: 0.0
  z: 0.0
angular:
  x: 0.0
  y: 0.0
  z: 0.000876124869427169
---
linear:
  x: 0.10164630867564826
  y: 0.0
  z: 0.0
angular:
  x: 0.0
  y: 0.0
  z: 0.0037185732570302024
---
linear:
  x: 0.10165280268216895
  y: 0.0
  z: 0.0
angular:
  x: 0.0
  y: 0.0
  z: 0.015277639265350987
---
linear:
  x: 0.10164778991926293
  y: 0.0
  z: 0.0
angular:
  x: 0.0
  y: 0.0
  z: 0.015069873711282484
---
linear:
  x: 0.10164710683957374
  y: 0.0
  z: 0.0
angular:
  x: 0.0
  y: 0.0
  z: 0.011015675358597835
---
linear:
  x: 0.10164698365547885
  y: 0.0
  z: 0.0
angular:
  x: 0.0
  y: 0.0
  z: 0.005206592246746775
---
linear:
  x: 0.1016774351557436
  y: 0.0
  z: 0.0
angular:
  x: 0.0
  y: 0.0
  z: 8.539344003959888e-05
---
linear:
  x: 0.10167827177934244
  y: 0.0
  z: 0.0
angular:
  x: 0.0
  y: 0.0
  z: 0.004057536801192166
---
linear:
  x: 0.1016737981613518
  y: 0.0
  z: 0.0
angular:
  x: 0.0
  y: 0.0
  z: 0.004008119413681202
---
linear:
  x: 0.10167037835444606
  y: 0.0
  z: 0.0
angular:
  x: 0.0
  y: 0.0
  z: -0.006088209192835049
---
linear:
  x: 0.10166397265563556
  y: 0.0
  z: 0.0
angular:
  x: 0.0
  y: 0.0
  z: 1.0289695639986718e-05
---
linear:
  x: 0.1016548616791258
  y: 0.0
  z: 0.0
angular:
  x: 0.0
  y: 0.0
  z: 0.009528935780291164
---
linear:
  x: 0.10165471990108191
  y: 0.0
  z: 0.0
angular:
  x: 0.0
  y: 0.0
  z: 0.01646583319452407
---
linear:
  x: 0.10165977973594374
  y: 0.0
  z: 0.0
angular:
  x: 0.0
  y: 0.0
  z: 0.013695023898870774
---
linear:
  x: 0.10167299405807582
  y: 0.0
  z: 0.0
angular:
  x: 0.0
  y: 0.0
  z: 0.0004976809245432139
---
linear:
  x: 0.10168897466477232
  y: 0.0
  z: 0.0
angular:
  x: 0.0
  y: 0.0
  z: -0.00732342463702783
---
linear:
  x: 0.10169529646847895
  y: 0.0
  z: 0.0
angular:
  x: 0.0
  y: 0.0
  z: -0.013340163188515004
---
linear:
  x: 0.10166902212454271
  y: 0.0
  z: 0.0
angular:
  x: 0.0
  y: 0.0
  z: -0.0032229437241092385
---
linear:
  x: 0.1016337658029256
  y: 0.0
  z: 0.0
angular:
  x: 0.0
  y: 0.0
  z: 0.011739658312626381
---
linear:
  x: 0.1016289571274771
  y: 0.0
  z: 0.0
angular:
  x: 0.0
  y: 0.0
  z: 0.020577228211989203
---
linear:
  x: 0.10163655099466458
  y: 0.0
  z: 0.0
angular:
  x: 0.0
  y: 0.0
  z: 0.021839963623827688
---
linear:
  x: 0.10164071091449725
  y: 0.0
  z: 0.0
angular:
  x: 0.0
  y: 0.0
  z: 0.013446594424504849
---
linear:
  x: 0.10166404248022165
  y: 0.0
  z: 0.0
angular:
  x: 0.0
  y: 0.0
  z: 0.0011720664595281528
---
linear:
  x: 0.1016734739381367
  y: 0.0
  z: 0.0
angular:
  x: 0.0
  y: 0.0
  z: -0.0031124467842628496
---
linear:
  x: 0.10165980827923643
  y: 0.0
  z: 0.0
angular:
  x: 0.0
  y: 0.0
  z: -0.0027435932535219763
---
linear:
  x: 0.10164224611951918
  y: 0.0
  z: 0.0
angular:
  x: 0.0
  y: 0.0
  z: 0.005070112326471934
---
linear:
  x: 0.10163191936123882
  y: 0.0
  z: 0.0
angular:
  x: 0.0
  y: 0.0
  z: 0.010074000923174786
---
linear:
  x: 0.10163983013942977
  y: 0.0
  z: 0.0
angular:
  x: 0.0
  y: 0.0
  z: 0.01603574764728672
---
linear:
  x: 0.10163876613674583
  y: 0.0
  z: 0.0
angular:
  x: 0.0
  y: 0.0
  z: 0.011939217112376296
---
linear:
  x: 0.1016564460500503
  y: 0.0
  z: 0.0
angular:
  x: 0.0
  y: 0.0
  z: 0.005598140383495191
---
linear:
  x: 0.10166426222725294
  y: 0.0
  z: 0.0
angular:
  x: 0.0
  y: 0.0
  z: 0.00238678315136366
---
linear:
  x: 0.10166002861537166
  y: 0.0
  z: 0.0
angular:
  x: 0.0
  y: 0.0
  z: -0.0034441339244903647
---
linear:
  x: 0.10165500947167941
  y: 0.0
  z: 0.0
angular:
  x: 0.0
  y: 0.0
  z: -0.0017537783533628907
---
linear:
  x: 0.10164754962772271
  y: 0.0
  z: 0.0
angular:
  x: 0.0
  y: 0.0
  z: 0.00618421275503378
---
linear:
  x: 0.10163137866388777
  y: 0.0
  z: 0.0
angular:
  x: 0.0
  y: 0.0
  z: 0.01672916806496616
---
linear:
  x: 0.10162018522910841
  y: 0.0
  z: 0.0
angular:
  x: 0.0
  y: 0.0
  z: 0.012447775684700051
---
linear:
  x: 0.10163745718264448
  y: 0.0
  z: 0.0
angular:
  x: 0.0
  y: 0.0
  z: 0.010806889742288484
---
linear:
  x: 0.10163920621080305
  y: 0.0
  z: 0.0
angular:
  x: 0.0
  y: 0.0
  z: 0.007629600082887439
---
linear:
  x: 0.10164607232944328
  y: 0.0
  z: 0.0
angular:
  x: 0.0
  y: 0.0
  z: -0.0030294281348969897
---
linear:
  x: 0.10164105781544241
  y: 0.0
  z: 0.0
angular:
  x: 0.0
  y: 0.0
  z: 0.0015244414866059468
---
linear:
  x: 0.10162195199621832
  y: 0.0
  z: 0.0
angular:
  x: 0.0
  y: 0.0
  z: 0.009713959144946759
---
linear:
  x: 0.1016131992957944
  y: 0.0
  z: 0.0
angular:
  x: 0.0
  y: 0.0
  z: 0.010645227406232109
---
linear:
  x: 0.10162891035070226
  y: 0.0
  z: 0.0
angular:
  x: 0.0
  y: 0.0
  z: 0.01807335638045397
---
linear:
  x: 0.1016204352972947
  y: 0.0
  z: 0.0
angular:
  x: 0.0
  y: 0.0
  z: 0.00803192010937802
---
linear:
  x: 0.10164113845464967
  y: 0.0
  z: 0.0
angular:
  x: 0.0
  y: 0.0
  z: -0.0019775400464410674
---
linear:
  x: 0.10164100923293261
  y: 0.0
  z: 0.0
angular:
  x: 0.0
  y: 0.0
  z: -0.0011695983342464701
---
linear:
  x: 0.10162215721563542
  y: 0.0
  z: 0.0
angular:
  x: 0.0
  y: 0.0
  z: 0.0018837046490058661
---
linear:
  x: 0.10161048163006954
  y: 0.0
  z: 0.0
angular:
  x: 0.0
  y: 0.0
  z: 0.012504819980568972
---
linear:
  x: 0.10160019346053227
  y: 0.0
  z: 0.0
angular:
  x: 0.0
  y: 0.0
  z: 0.015717141493170543
---
linear:
  x: 0.10160241968795436
  y: 0.0
  z: 0.0
angular:
  x: 0.0
  y: 0.0
  z: 0.013878839079008259
---
linear:
  x: 0.10160661855170137
  y: 0.0
  z: 0.0
angular:
  x: 0.0
  y: 0.0
  z: 0.008962983464383525
---
linear:
  x: 0.10161389712913
  y: 0.0
  z: 0.0
angular:
  x: 0.0
  y: 0.0
  z: 0.005584820790466172
---
linear:
  x: 0.10161232678262451
  y: 0.0
  z: 0.0
angular:
  x: 0.0
  y: 0.0
  z: 0.0005310768047928073
---
linear:
  x: 0.10162890311276934
  y: 0.0
  z: 0.0
angular:
  x: 0.0
  y: 0.0
  z: -0.006490740679806114
---
linear:
  x: 0.10160767275252268
  y: 0.0
  z: 0.0
angular:
  x: 0.0
  y: 0.0
  z: -0.002131656181384075
---
linear:
  x: 0.10157345583525985
  y: 0.0
  z: 0.0
angular:
  x: 0.0
  y: 0.0
  z: 0.01094630341534206
---
linear:
  x: 0.10156703500479597
  y: 0.0
  z: 0.0
angular:
  x: 0.0
  y: 0.0
  z: 0.02468361825598928
---
linear:
  x: 0.10155482761156898
  y: 0.0
  z: 0.0
angular:
  x: 0.0
  y: 0.0
  z: 0.024056674622779568
---
linear:
  x: 0.10156081015933137
  y: 0.0
  z: 0.0
angular:
  x: 0.0
  y: 0.0
  z: 0.016706892188008325
---
linear:
  x: 0.10157447863193801
  y: 0.0
  z: 0.0
angular:
  x: 0.0
  y: 0.0
  z: 0.006273962180902211
---
linear:
  x: 0.10157447863193801
  y: 0.0
  z: 0.0
angular:
  x: 0.0
  y: 0.0
  z: 0.006273962180902211
---
linear:
  x: 0.10160544570252875
  y: 0.0
  z: 0.0
angular:
  x: 0.0
  y: 0.0
  z: -0.007566332987873903
---
linear:
  x: 0.1015941040788207
  y: 0.0
  z: 0.0
angular:
  x: 0.0
  y: 0.0
  z: -0.005378878142441066
---
linear:
  x: 0.1015941040788207
  y: 0.0
  z: 0.0
angular:
  x: 0.0
  y: 0.0
  z: -0.005378878142441066
---
linear:
  x: 0.10152913128077201
  y: 0.0
  z: 0.0
angular:
  x: 0.0
  y: 0.0
  z: 0.013354060457769644
---
linear:
  x: 0.10150027247271809
  y: 0.0
  z: 0.0
angular:
  x: 0.0
  y: 0.0
  z: 0.024216121858555952
---
linear:
  x: 0.10149061802162725
  y: 0.0
  z: 0.0
angular:
  x: 0.0
  y: 0.0
  z: 0.02253073001960562
---
linear:
  x: 0.10148697047454427
  y: 0.0
  z: 0.0
angular:
  x: 0.0
  y: 0.0
  z: 0.014620119177794799
---
linear:
  x: 0.10148282301075309
  y: 0.0
  z: 0.0
angular:
  x: 0.0
  y: 0.0
  z: 0.004683141739647321
---
linear:
  x: 0.10147633260098975
  y: 0.0
  z: 0.0
angular:
  x: 0.0
  y: 0.0
  z: 0.002025915825805136
---
linear:
  x: 0.10144150519492068
  y: 0.0
  z: 0.0
angular:
  x: 0.0
  y: 0.0
  z: 0.010188319195431186
---
linear:
  x: 0.10144150519492068
  y: 0.0
  z: 0.0
angular:
  x: 0.0
  y: 0.0
  z: 0.010188319195431186
---
linear:
  x: 0.10138942974698169
  y: 0.0
  z: 0.0
angular:
  x: 0.0
  y: 0.0
  z: 0.029092255443179643
---
linear:
  x: 0.10137091124713592
  y: 0.0
  z: 0.0
angular:
  x: 0.0
  y: 0.0
  z: 0.03309661683241119
---
linear:
  x: 0.10135021539157436
  y: 0.0
  z: 0.0
angular:
  x: 0.0
  y: 0.0
  z: 0.02097900539177072
---
linear:
  x: 0.10136284241682657
  y: 0.0
  z: 0.0
angular:
  x: 0.0
  y: 0.0
  z: 0.01794249420145401
---
linear:
  x: 0.10135584329250005
  y: 0.0
  z: 0.0
angular:
  x: 0.0
  y: 0.0
  z: 0.007907339692565518
---
linear:
  x: 0.10135040655316359
  y: 0.0
  z: 0.0
angular:
  x: 0.0
  y: 0.0
  z: 0.008749921987362009
---
linear:
  x: 0.1013208792332579
  y: 0.0
  z: 0.0
angular:
  x: 0.0
  y: 0.0
  z: 0.018898863105231516
---
linear:
  x: 0.10129847866330635
  y: 0.0
  z: 0.0
angular:
  x: 0.0
  y: 0.0
  z: 0.028286940409727953
---
linear:
  x: 0.10129662831921625
  y: 0.0
  z: 0.0
angular:
  x: 0.0
  y: 0.0
  z: 0.029862218676859842
---
linear:
  x: 0.10130248841389299
  y: 0.0
  z: 0.0
angular:
  x: 0.0
  y: 0.0
  z: 0.03370769329362225
---
linear:
  x: 0.10130361097336785
  y: 0.0
  z: 0.0
angular:
  x: 0.0
  y: 0.0
  z: 0.030024159300109134
---
linear:
  x: 0.10130815639527811
  y: 0.0
  z: 0.0
angular:
  x: 0.0
  y: 0.0
  z: 0.021971838115392286
---
linear:
  x: 0.10131928272252227
  y: 0.0
  z: 0.0
angular:
  x: 0.0
  y: 0.0
  z: 0.01804595283430441
---
linear:
  x: 0.10131707406218456
  y: 0.0
  z: 0.0
angular:
  x: 0.0
  y: 0.0
  z: 0.016794711418628677
---
linear:
  x: 0.10132362867092928
  y: 0.0
  z: 0.0
angular:
  x: 0.0
  y: 0.0
  z: 0.02028376751481832
---
linear:
  x: 0.10132362867092928
  y: 0.0
  z: 0.0
angular:
  x: 0.0
  y: 0.0
  z: 0.02028376751481832
---
linear:
  x: 0.101306492119731
  y: 0.0
  z: 0.0
angular:
  x: 0.0
  y: 0.0
  z: 0.024010476581057077
---
linear:
  x: 0.10133698250332296
  y: 0.0
  z: 0.0
angular:
  x: 0.0
  y: 0.0
  z: 0.032428581707600636
---
linear:
  x: 0.10134573497423807
  y: 0.0
  z: 0.0
angular:
  x: 0.0
  y: 0.0
  z: 0.03314204703956356
---
linear:
  x: 0.1013456487821408
  y: 0.0
  z: 0.0
angular:
  x: 0.0
  y: 0.0
  z: 0.026855943042629865
---
linear:
  x: 0.1013456487821408
  y: 0.0
  z: 0.0
angular:
  x: 0.0
  y: 0.0
  z: 0.026855943042629865
---
linear:
  x: 0.10139095743300026
  y: 0.0
  z: 0.0
angular:
  x: 0.0
  y: 0.0
  z: 0.01656144520387907
---
linear:
  x: 0.10140578308152946
  y: 0.0
  z: 0.0
angular:
  x: 0.0
  y: 0.0
  z: 0.009681139742803652
---
linear:
  x: 0.1014043995287441
  y: 0.0
  z: 0.0
angular:
  x: 0.0
  y: 0.0
  z: 0.013564597500699766
---
linear:
  x: 0.10140297854725129
  y: 0.0
  z: 0.0
angular:
  x: 0.0
  y: 0.0
  z: 0.022613278101315283
---
linear:
  x: 0.10140677142884989
  y: 0.0
  z: 0.0
angular:
  x: 0.0
  y: 0.0
  z: 0.028734282227318445
---
linear:
  x: 0.1014129072971747
  y: 0.0
  z: 0.0
angular:
  x: 0.0
  y: 0.0
  z: 0.02659207711151678
---
linear:
  x: 0.10143628594611176
  y: 0.0
  z: 0.0
angular:
  x: 0.0
  y: 0.0
  z: 0.021488803579344674
---
linear:
  x: 0.10145513574197261
  y: 0.0
  z: 0.0
angular:
  x: 0.0
  y: 0.0
  z: 0.0160785266678228
---
linear:
  x: 0.10146965844557938
  y: 0.0
  z: 0.0
angular:
  x: 0.0
  y: 0.0
  z: 0.017851102341754663
---
linear:
  x: 0.10146947971400638
  y: 0.0
  z: 0.0
angular:
  x: 0.0
  y: 0.0
  z: 0.014242697610711286
---
linear:
  x: 0.10148031838521417
  y: 0.0
  z: 0.0
angular:
  x: 0.0
  y: 0.0
  z: 0.013901441533867607
---
linear:
  x: 0.10149040816192385
  y: 0.0
  z: 0.0
angular:
  x: 0.0
  y: 0.0
  z: 0.019800825260776696
---
linear:
  x: 0.10149265335261125
  y: 0.0
  z: 0.0
angular:
  x: 0.0
  y: 0.0
  z: 0.018047906991981815
---
linear:
  x: 0.10150875767004051
  y: 0.0
  z: 0.0
angular:
  x: 0.0
  y: 0.0
  z: 0.01772424578432223
---
linear:
  x: 0.10152125559818133
  y: 0.0
  z: 0.0
angular:
  x: 0.0
  y: 0.0
  z: 0.018540855887493202
---
linear:
  x: 0.101520880258532
  y: 0.0
  z: 0.0
angular:
  x: 0.0
  y: 0.0
  z: 0.011052049935236726
---
linear:
  x: 0.10154533267667941
  y: 0.0
  z: 0.0
angular:
  x: 0.0
  y: 0.0
  z: 0.013488583142538476
---
linear:
  x: 0.10154686437276926
  y: 0.0
  z: 0.0
angular:
  x: 0.0
  y: 0.0
  z: 0.010390376699922734
---
linear:
  x: 0.10154686437276926
  y: 0.0
  z: 0.0
angular:
  x: 0.0
  y: 0.0
  z: 0.010390376699922734
---
linear:
  x: 0.10156113661094653
  y: 0.0
  z: 0.0
angular:
  x: 0.0
  y: 0.0
  z: 0.013512513437950645
---
linear:
  x: 0.10156113661094653
  y: 0.0
  z: 0.0
angular:
  x: 0.0
  y: 0.0
  z: 0.013512513437950645
---
linear:
  x: 0.10156571929898082
  y: 0.0
  z: 0.0
angular:
  x: 0.0
  y: 0.0
  z: 0.013059070462171116
---
linear:
  x: 0.10156571929898082
  y: 0.0
  z: 0.0
angular:
  x: 0.0
  y: 0.0
  z: 0.013059070462171116
---
linear:
  x: 0.10157693210373223
  y: 0.0
  z: 0.0
angular:
  x: 0.0
  y: 0.0
  z: 0.013720977952243413
---
linear:
  x: 0.10158268594104325
  y: 0.0
  z: 0.0
angular:
  x: 0.0
  y: 0.0
  z: 0.010043127400290392
---
linear:
  x: 0.10160231810017861
  y: 0.0
  z: 0.0
angular:
  x: 0.0
  y: 0.0
  z: 0.009638554574482101
---
linear:
  x: 0.10160993461619616
  y: 0.0
  z: 0.0
angular:
  x: 0.0
  y: 0.0
  z: 0.007004610956352015
---
linear:
  x: 0.10160975475561443
  y: 0.0
  z: 0.0
angular:
  x: 0.0
  y: 0.0
  z: 0.00674717799526967
---
linear:
  x: 0.10161227289970363
  y: 0.0
  z: 0.0
angular:
  x: 0.0
  y: 0.0
  z: 0.009751289200041018
---
linear:
  x: 0.10161469387573635
  y: 0.0
  z: 0.0
angular:
  x: 0.0
  y: 0.0
  z: 0.011947235527205202
---
linear:
  x: 0.10161680984137728
  y: 0.0
  z: 0.0
angular:
  x: 0.0
  y: 0.0
  z: 0.009408361688304872
---
linear:
  x: 0.10162441347619676
  y: 0.0
  z: 0.0
angular:
  x: 0.0
  y: 0.0
  z: 0.006924764395432881
---
linear:
  x: 0.10162934729878113
  y: 0.0
  z: 0.0
angular:
  x: 0.0
  y: 0.0
  z: 0.007132383171050756
---
linear:
  x: 0.10163444847954431
  y: 0.0
  z: 0.0
angular:
  x: 0.0
  y: 0.0
  z: 0.007588484605589093
---
linear:
  x: 0.10163772083743883
  y: 0.0
  z: 0.0
angular:
  x: 0.0
  y: 0.0
  z: 0.011044310525898382
---
linear:
  x: 0.10164206878637333
  y: 0.0
  z: 0.0
angular:
  x: 0.0
  y: 0.0
  z: 0.010702175416697183
---
linear:
  x: 0.10164773604574456
  y: 0.0
  z: 0.0
angular:
  x: 0.0
  y: 0.0
  z: 0.006473975887789271
---
linear:
  x: 0.10165510918977919
  y: 0.0
  z: 0.0
angular:
  x: 0.0
  y: 0.0
  z: 0.0022444659330604173
---
linear:
  x: 0.10165511758686213
  y: 0.0
  z: 0.0
angular:
  x: 0.0
  y: 0.0
  z: 0.002280972267612776
---
linear:
  x: 0.1016579766114497
  y: 0.0
  z: 0.0
angular:
  x: 0.0
  y: 0.0
  z: 0.007839063391524478
---
linear:
  x: 0.10165739364113247
  y: 0.0
  z: 0.0
angular:
  x: 0.0
  y: 0.0
  z: 0.015228773133944983
---
linear:
  x: 0.10165928391833826
  y: 0.0
  z: 0.0
angular:
  x: 0.0
  y: 0.0
  z: 0.009336478112511346
---
linear:
  x: 0.10167761710465531
  y: 0.0
  z: 0.0
angular:
  x: 0.0
  y: 0.0
  z: 0.0018937345625428632
---
linear:
  x: 0.10168641010412689
  y: 0.0
  z: 0.0
angular:
  x: 0.0
  y: 0.0
  z: -0.0017869204647633396
---
linear:
  x: 0.10168188297587269
  y: 0.0
  z: 0.0
angular:
  x: 0.0
  y: 0.0
  z: 0.0007543691140872907
---
linear:
  x: 0.10167344651032084
  y: 0.0
  z: 0.0
angular:
  x: 0.0
  y: 0.0
  z: 0.0030245328048554105
---
linear:
  x: 0.10167180081432257
  y: 0.0
  z: 0.0
angular:
  x: 0.0
  y: 0.0
  z: 0.00806519786539697
---
linear:
  x: 0.10167364633583152
  y: 0.0
  z: 0.0
angular:
  x: 0.0
  y: 0.0
  z: 0.01006725323808608
---
linear:
  x: 0.10167916837927767
  y: 0.0
  z: 0.0
angular:
  x: 0.0
  y: 0.0
  z: 0.005839468960811495
---
linear:
  x: 0.10168675640774372
  y: 0.0
  z: 0.0
angular:
  x: 0.0
  y: 0.0
  z: 0.0031629522025854334
---
linear:
  x: 0.10169124696263346
  y: 0.0
  z: 0.0
angular:
  x: 0.0
  y: 0.0
  z: 0.0035229022071635464
---
linear:
  x: 0.10169558554922536
  y: 0.0
  z: 0.0
angular:
  x: 0.0
  y: 0.0
  z: 0.0035353027269696075
---
linear:
  x: 0.10169558554922536
  y: 0.0
  z: 0.0
angular:
  x: 0.0
  y: 0.0
  z: 0.0035353027269696075
---
linear:
  x: 0.10169558554922536
  y: 0.0
  z: 0.0
angular:
  x: 0.0
  y: 0.0
  z: 0.0035353027269696075
---
linear:
  x: 0.10169511114931727
  y: 0.0
  z: 0.0
angular:
  x: 0.0
  y: 0.0
  z: 0.0017800461836286413
---
linear:
  x: 0.10169940476600113
  y: 0.0
  z: 0.0
angular:
  x: 0.0
  y: 0.0
  z: 0.0016954271392351692
---
linear:
  x: 0.1016992621635048
  y: 0.0
  z: 0.0
angular:
  x: 0.0
  y: 0.0
  z: -0.00026472649818772476
---
linear:
  x: 0.10169957269128704
  y: 0.0
  z: 0.0
angular:
  x: 0.0
  y: 0.0
  z: 0.002485327025542667
---
linear:
  x: 0.10169167728757555
  y: 0.0
  z: 0.0
angular:
  x: 0.0
  y: 0.0
  z: 0.004568822321378255
---
linear:
  x: 0.10169682966203944
  y: 0.0
  z: 0.0
angular:
  x: 0.0
  y: 0.0
  z: 0.00607991816781
---
linear:
  x: 0.10170050017212867
  y: 0.0
  z: 0.0
angular:
  x: 0.0
  y: 0.0
  z: 0.004941284858502254
---
linear:
  x: 0.10170401382026216
  y: 0.0
  z: 0.0
angular:
  x: 0.0
  y: 0.0
  z: 0.0031017230037069495
---
linear:
  x: 0.10170802593554656
  y: 0.0
  z: 0.0
angular:
  x: 0.0
  y: 0.0
  z: 0.0022650387819633804
---
linear:
  x: 0.10171209002349385
  y: 0.0
  z: 0.0
angular:
  x: 0.0
  y: 0.0
  z: 0.0014713008592432471
---
linear:
  x: 0.10171227981574876
  y: 0.0
  z: 0.0
angular:
  x: 0.0
  y: 0.0
  z: 0.0024283057172149987
---
linear:
  x: 0.10171198731195255
  y: 0.0
  z: 0.0
angular:
  x: 0.0
  y: 0.0
  z: -0.00038088512530768764
---
linear:
  x: 0.10171233053721457
  y: 0.0
  z: 0.0
angular:
  x: 0.0
  y: 0.0
  z: 0.002625646428352625
---
linear:
  x: 0.10171266554539188
  y: 0.0
  z: 0.0
angular:
  x: 0.0
  y: 0.0
  z: 0.0036716960516110695
---
linear:
  x: 0.10171299947169476
  y: 0.0
  z: 0.0
angular:
  x: 0.0
  y: 0.0
  z: 0.0044774295489122574
---
linear:
  x: 0.10171638249494395
  y: 0.0
  z: 0.0
angular:
  x: 0.0
  y: 0.0
  z: 0.0020879631103665197
---
linear:
  x: 0.1017205863933649
  y: 0.0
  z: 0.0
angular:
  x: 0.0
  y: 0.0
  z: -0.002305435074477163
---
linear:
  x: 0.10172044696268463
  y: 0.0
  z: 0.0
angular:
  x: 0.0
  y: 0.0
  z: -0.0016042407382873178
---
linear:
  x: 0.10171616360523948
  y: 0.0
  z: 0.0
angular:
  x: 0.0
  y: 0.0
  z: 0.0002359370517525229
---
linear:
  x: 0.10171616360523948
  y: 0.0
  z: 0.0
angular:
  x: 0.0
  y: 0.0
  z: 0.0002359370517525229
---
linear:
  x: 0.10171623093307113
  y: 0.0
  z: 0.0
angular:
  x: 0.0
  y: 0.0
  z: -0.001174522050349452
---
linear:
  x: 0.10171009013222698
  y: 0.0
  z: 0.0
angular:
  x: 0.0
  y: 0.0
  z: 0.006761677425191565
---
linear:
  x: 0.10170627191530275
  y: 0.0
  z: 0.0
angular:
  x: 0.0
  y: 0.0
  z: 0.007350166863878313
---
linear:
  x: 0.10170945640389206
  y: 0.0
  z: 0.0
angular:
  x: 0.0
  y: 0.0
  z: 0.0057670565503772
---
linear:
  x: 0.10171638249494395
  y: 0.0
  z: 0.0
angular:
  x: 0.0
  y: 0.0
  z: 0.0020879631103665197
---
linear:
  x: 0.10172044696268463
  y: 0.0
  z: 0.0
angular:
  x: 0.0
  y: 0.0
  z: -0.0016042407382873178
---
linear:
  x: 0.1017256363975597
  y: 0.0
  z: 0.0
angular:
  x: 0.0
  y: 0.0
  z: -0.004855417508407012
---
linear:
  x: 0.10172077338084558
  y: 0.0
  z: 0.0
angular:
  x: 0.0
  y: 0.0
  z: 0.002998585165559694
---
linear:
  x: 0.10171266554539188
  y: 0.0
  z: 0.0
angular:
  x: 0.0
  y: 0.0
  z: 0.0036716960516110695
---
linear:
  x: 0.1017172286522218
  y: 0.0
  z: 0.0
angular:
  x: 0.0
  y: 0.0
  z: 0.004582251978564076
---
linear:
  x: 0.10172058454848668
  y: 0.0
  z: 0.0
angular:
  x: 0.0
  y: 0.0
  z: 0.0022975549647652476
---
linear:
  x: 0.10172466245986232
  y: 0.0
  z: 0.0
angular:
  x: 0.0
  y: 0.0
  z: -0.0021039854127970063
---
linear:
  x: 0.10172887949637661
  y: 0.0
  z: 0.0
angular:
  x: 0.0
  y: 0.0
  z: -0.002641902873448615
---
linear:
  x: 0.10172034973137692
  y: 0.0
  z: 0.0
angular:
  x: 0.0
  y: 0.0
  z: -0.0008135435469578155
---
linear:
  x: 0.10171836596310123
  y: 0.0
  z: 0.0
angular:
  x: 0.0
  y: 0.0
  z: 0.0065847456834254746
---
linear:
  x: 0.10171792150139164
  y: 0.0
  z: 0.0
angular:
  x: 0.0
  y: 0.0
  z: 0.005883868154265868
---
linear:
  x: 0.10172853434806071
  y: 0.0
  z: 0.0
angular:
  x: 0.0
  y: 0.0
  z: -0.0004404519698366885
---
linear:
  x: 0.10173341167097086
  y: 0.0
  z: 0.0
angular:
  x: 0.0
  y: 0.0
  z: -0.004028632893517712
---
linear:
  x: 0.10173341167097086
  y: 0.0
  z: 0.0
angular:
  x: 0.0
  y: 0.0
  z: -0.004028632893517712
---
linear:
  x: 0.10172853434806071
  y: 0.0
  z: 0.0
angular:
  x: 0.0
  y: 0.0
  z: -0.0004404519698366885
---
linear:
  x: 0.10172298790793355
  y: 0.0
  z: 0.0
angular:
  x: 0.0
  y: 0.0
  z: 0.007247888650342304
---
linear:
  x: 0.10172266401718418
  y: 0.0
  z: 0.0
angular:
  x: 0.0
  y: 0.0
  z: 0.006794401357006486
---
linear:
  x: 0.10173266892988733
  y: 0.0
  z: 0.0
angular:
  x: 0.0
  y: 0.0
  z: 0.0012759944299503248
---
linear:
  x: 0.10173703025833208
  y: 0.0
  z: 0.0
angular:
  x: 0.0
  y: 0.0
  z: -0.0028616910686674046
---
linear:
  x: 0.10174186619022368
  y: 0.0
  z: 0.0
angular:
  x: 0.0
  y: 0.0
  z: -0.0049579742487411895
---
linear:
  x: 0.1017379722709027
  y: 0.0
  z: 0.0
angular:
  x: 0.0
  y: 0.0
  z: -0.0051679453889394746
---
linear:
  x: 0.1017326690755263
  y: 0.0
  z: 0.0
angular:
  x: 0.0
  y: 0.0
  z: -0.0012771155170211558
---
linear:
  x: 0.10172852508758252
  y: 0.0
  z: 0.0
angular:
  x: 0.0
  y: 0.0
  z: 0.00010924967185404417
---
linear:
  x: 0.10172463053811712
  y: 0.0
  z: 0.0
angular:
  x: 0.0
  y: 0.0
  z: 0.0019491398209963645
---
linear:
  x: 0.10172463053811712
  y: 0.0
  z: 0.0
angular:
  x: 0.0
  y: 0.0
  z: 0.0019491398209963645
---
linear:
  x: 0.1017246845788376
  y: 0.0
  z: 0.0
angular:
  x: 0.0
  y: 0.0
  z: 0.00220491140677422
---
linear:
  x: 0.10172444346447503
  y: 0.0
  z: 0.0
angular:
  x: 0.0
  y: 0.0
  z: -0.000348000119162596
---
linear:
  x: 0.10172853434806071
  y: 0.0
  z: 0.0
angular:
  x: 0.0
  y: 0.0
  z: -0.0004404519698366885
---
linear:
  x: 0.10172501139445644
  y: 0.0
  z: 0.0
angular:
  x: 0.0
  y: 0.0
  z: 0.0033596281068426497
---
linear:
  x: 0.10173314926644346
  y: 0.0
  z: 0.0
angular:
  x: 0.0
  y: 0.0
  z: -0.003327345873329366
---
linear:
  x: 0.10173726246794704
  y: 0.0
  z: 0.0
angular:
  x: 0.0
  y: 0.0
  z: -0.0035712954894590657
---
linear:
  x: 0.10173266892988733
  y: 0.0
  z: 0.0
angular:
  x: 0.0
  y: 0.0
  z: 0.0012759944299503248
---
linear:
  x: 0.10172910266248532
  y: 0.0
  z: 0.0
angular:
  x: 0.0
  y: 0.0
  z: 0.003371513421939199
---
linear:
  x: 0.10172852508758252
  y: 0.0
  z: 0.0
angular:
  x: 0.0
  y: 0.0
  z: 0.00010924967185404417
---
linear:
  x: 0.10173285068238541
  y: 0.0
  z: 0.0
angular:
  x: 0.0
  y: 0.0
  z: -0.002280634241048506
---
linear:
  x: 0.10173285068238541
  y: 0.0
  z: 0.0
angular:
  x: 0.0
  y: 0.0
  z: -0.002280634241048506
---
linear:
  x: 0.10172853434806071
  y: 0.0
  z: 0.0
angular:
  x: 0.0
  y: 0.0
  z: -0.0004404519698366885
---
linear:
  x: 0.1017254245048775
  y: 0.0
  z: 0.0
angular:
  x: 0.0
  y: 0.0
  z: 0.0044055810249315425
---
linear:
  x: 0.10172123139251643
  y: 0.0
  z: 0.0
angular:
  x: 0.0
  y: 0.0
  z: 0.00424225488312397
---
linear:
  x: 0.10172865621277415
  y: 0.0
  z: 0.0
angular:
  x: 0.0
  y: 0.0
  z: 0.0016093094773466596
---
linear:
  x: 0.10173269097321047
  y: 0.0
  z: 0.0
angular:
  x: 0.0
  y: 0.0
  z: 0.001435799218126002
---
linear:
  x: 0.10173719244908558
  y: 0.0
  z: 0.0
angular:
  x: 0.0
  y: 0.0
  z: -0.003373083565826206
---
linear:
  x: 0.10174113980802953
  y: 0.0
  z: 0.0
angular:
  x: 0.0
  y: 0.0
  z: -0.003209769047975739
---
linear:
  x: 0.10173668594384
  y: 0.0
  z: 0.0
angular:
  x: 0.0
  y: 0.0
  z: 0.0011918725774089861
---
linear:
  x: 0.10172852508758252
  y: 0.0
  z: 0.0
angular:
  x: 0.0
  y: 0.0
  z: 0.00010924967185404417
---
linear:
  x: 0.1017288594053568
  y: 0.0
  z: 0.0
angular:
  x: 0.0
  y: 0.0
  z: 0.0025660597325632356
---
linear:
  x: 0.1017288594053568
  y: 0.0
  z: 0.0
angular:
  x: 0.0
  y: 0.0
  z: 0.0025660597325632356
---
linear:
  x: 0.1017288594053568
  y: 0.0
  z: 0.0
angular:
  x: 0.0
  y: 0.0
  z: 0.0025660597325632356
---
linear:
  x: 0.10173258881531973
  y: 0.0
  z: 0.0
angular:
  x: 0.0
  y: 0.0
  z: -0.00023056375971503628
---
linear:
  x: 0.10174174448441838
  y: 0.0
  z: 0.0
angular:
  x: 0.0
  y: 0.0
  z: -0.0047105289432192166
---
linear:
  x: 0.10174179087597719
  y: 0.0
  z: 0.0
angular:
  x: 0.0
  y: 0.0
  z: -0.004806352408684372
---
linear:
  x: 0.1017472512416608
  y: 0.0
  z: 0.0
angular:
  x: 0.0
  y: 0.0
  z: -0.007252776438397835
---
linear:
  x: 0.10174090977784944
  y: 0.0
  z: 0.0
angular:
  x: 0.0
  y: 0.0
  z: -0.002404319642525583
---
linear:
  x: 0.10173263516506881
  y: 0.0
  z: 0.0
angular:
  x: 0.0
  y: 0.0
  z: 0.0009820217160240298
---
linear:
  x: 0.10172473094117551
  y: 0.0
  z: 0.0
angular:
  x: 0.0
  y: 0.0
  z: 0.0024027399825030417
---
linear:
  x: 0.10172463053811712
  y: 0.0
  z: 0.0
angular:
  x: 0.0
  y: 0.0
  z: 0.0019491398209963645
---
linear:
  x: 0.1017288594053568
  y: 0.0
  z: 0.0
angular:
  x: 0.0
  y: 0.0
  z: 0.0025660597325632356
---
linear:
  x: 0.10172854059961774
  y: 0.0
  z: 0.0
angular:
  x: 0.0
  y: 0.0
  z: 0.0005629434685151659
---
linear:
  x: 0.1017326690755263
  y: 0.0
  z: 0.0
angular:
  x: 0.0
  y: 0.0
  z: -0.0012771155170211558
---
linear:
  x: 0.1017326690755263
  y: 0.0
  z: 0.0
angular:
  x: 0.0
  y: 0.0
  z: -0.0012771155170211558
---
linear:
  x: 0.10173265694073393
  y: 0.0
  z: 0.0
angular:
  x: 0.0
  y: 0.0
  z: 0.0011800268145378825
---
linear:
  x: 0.10172854059961774
  y: 0.0
  z: 0.0
angular:
  x: 0.0
  y: 0.0
  z: 0.0005629434685151659
---
linear:
  x: 0.10173259737540408
  y: 0.0
  z: 0.0
angular:
  x: 0.0
  y: 0.0
  z: 0.0004705806106988478
---
linear:
  x: 0.10173261294105668
  y: 0.0
  z: 0.0
angular:
  x: 0.0
  y: 0.0
  z: 0.0007262622471450167
---
linear:
  x: 0.10173261294105668
  y: 0.0
  z: 0.0
angular:
  x: 0.0
  y: 0.0
  z: 0.0007262622471450167
---
linear:
  x: 0.10173258614339496
  y: 0.0
  z: 0.0
angular:
  x: 0.0
  y: 0.0
  z: 2.5120065393963787e-05
---
linear:
  x: 0.10173261294105668
  y: 0.0
  z: 0.0
angular:
  x: 0.0
  y: 0.0
  z: 0.0007262622471450167
---
linear:
  x: 0.10173285068238541
  y: 0.0
  z: 0.0
angular:
  x: 0.0
  y: 0.0
  z: -0.002280634241048506
---
linear:
  x: 0.10173262957089904
  y: 0.0
  z: 0.0
angular:
  x: 0.0
  y: 0.0
  z: 0.0009243322717300552
---
linear:
  x: 0.10173283823030528
  y: 0.0
  z: 0.0
angular:
  x: 0.0
  y: 0.0
  z: 0.0022263188659467207
---
linear:
  x: 0.10173258881531973
  y: 0.0
  z: 0.0
angular:
  x: 0.0
  y: 0.0
  z: -0.00023056375971503628
---
linear:
  x: 0.1017367500654403
  y: 0.0
  z: 0.0
angular:
  x: 0.0
  y: 0.0
  z: 0.001637406595019147
---
linear:
  x: 0.10173273830976715
  y: 0.0
  z: 0.0
angular:
  x: 0.0
  y: 0.0
  z: 0.0017297761331756967
---
linear:
  x: 0.10173710804008873
  y: 0.0
  z: 0.0
angular:
  x: 0.0
  y: 0.0
  z: -0.003117426079614442
---
linear:
  x: 0.10173661429965458
  y: 0.0
  z: 0.0
angular:
  x: 0.0
  y: 0.0
  z: -0.00011016389923574406
---
linear:
  x: 0.10173667678774333
  y: 0.0
  z: 0.0
angular:
  x: 0.0
  y: 0.0
  z: -0.0011138058700067691
---
linear:
  x: 0.1017326029207632
  y: 0.0
  z: 0.0
angular:
  x: 0.0
  y: 0.0
  z: 0.0005748597584605738
---
linear:
  x: 0.10172854059961774
  y: 0.0
  z: 0.0
angular:
  x: 0.0
  y: 0.0
  z: 0.0005629434685151659
---
linear:
  x: 0.10172854059961774
  y: 0.0
  z: 0.0
angular:
  x: 0.0
  y: 0.0
  z: 0.0005629434685151659
---
linear:
  x: 0.10173259737540408
  y: 0.0
  z: 0.0
angular:
  x: 0.0
  y: 0.0
  z: 0.0004705806106988478
---
linear:
  x: 0.10173320108649393
  y: 0.0
  z: 0.0
angular:
  x: 0.0
  y: 0.0
  z: 0.0034770641308503854
---
linear:
  x: 0.10173259737540408
  y: 0.0
  z: 0.0
angular:
  x: 0.0
  y: 0.0
  z: 0.0004705806106988478
---
linear:
  x: 0.10173674666924747
  y: 0.0
  z: 0.0
angular:
  x: 0.0
  y: 0.0
  z: -0.0016168904501053425
---
linear:
  x: 0.10173667678774333
  y: 0.0
  z: 0.0
angular:
  x: 0.0
  y: 0.0
  z: -0.0011138058700067691
---
linear:
  x: 0.10173680103428007
  y: 0.0
  z: 0.0
angular:
  x: 0.0
  y: 0.0
  z: -0.0019191332566739466
---
linear:
  x: 0.10173259737540408
  y: 0.0
  z: 0.0
angular:
  x: 0.0
  y: 0.0
  z: 0.0004705806106988478
---
linear:
  x: 0.10172901826804309
  y: 0.0
  z: 0.0
angular:
  x: 0.0
  y: 0.0
  z: 0.0031157517074138007
---
linear:
  x: 0.1017288594053568
  y: 0.0
  z: 0.0
angular:
  x: 0.0
  y: 0.0
  z: 0.0025660597325632356
---
linear:
  x: 0.10173667678774333
  y: 0.0
  z: 0.0
angular:
  x: 0.0
  y: 0.0
  z: -0.0011138058700067691
---
linear:
  x: 0.10174105964659622
  y: 0.0
  z: 0.0
angular:
  x: 0.0
  y: 0.0
  z: -0.0029541208002268095
---
linear:
  x: 0.10173663583723934
  y: 0.0
  z: 0.0
angular:
  x: 0.0
  y: 0.0
  z: -0.0006599506744963
---
linear:
  x: 0.10173285068238541
  y: 0.0
  z: 0.0
angular:
  x: 0.0
  y: 0.0
  z: -0.002280634241048506
---
linear:
  x: 0.10173259737540408
  y: 0.0
  z: 0.0
angular:
  x: 0.0
  y: 0.0
  z: 0.0004705806106988478
---
linear:
  x: 0.10173010376482022
  y: 0.0
  z: 0.0
angular:
  x: 0.0
  y: 0.0
  z: 0.005572126860815047
---
linear:
  x: 0.1017288594053568
  y: 0.0
  z: 0.0
angular:
  x: 0.0
  y: 0.0
  z: 0.0025660597325632356
---
linear:
  x: 0.10173683179526397
  y: 0.0
  z: 0.0
angular:
  x: 0.0
  y: 0.0
  z: -0.00207069750111508
---
linear:
  x: 0.10174139384930268
  y: 0.0
  z: 0.0
angular:
  x: 0.0
  y: 0.0
  z: -0.003911069473274934
---
linear:
  x: 0.10173663583723934
  y: 0.0
  z: 0.0
angular:
  x: 0.0
  y: 0.0
  z: -0.0006599506744963
---
linear:
  x: 0.10173259737540408
  y: 0.0
  z: 0.0
angular:
  x: 0.0
  y: 0.0
  z: 0.0004705806106988478
---
linear:
  x: 0.10173283823030528
  y: 0.0
  z: 0.0
angular:
  x: 0.0
  y: 0.0
  z: 0.0022263188659467207
---
linear:
  x: 0.10173283823030528
  y: 0.0
  z: 0.0
angular:
  x: 0.0
  y: 0.0
  z: 0.0022263188659467207
---
linear:
  x: 0.10173320108649393
  y: 0.0
  z: 0.0
angular:
  x: 0.0
  y: 0.0
  z: 0.0034770641308503854
---
linear:
  x: 0.10173665826653729
  y: 0.0
  z: 0.0
angular:
  x: 0.0
  y: 0.0
  z: 0.0009361965509646631
---
linear:
  x: 0.10174061779482152
  y: 0.0
  z: 0.0
angular:
  x: 0.0
  y: 0.0
  z: -0.000202520960805123
---
linear:
  x: 0.10174061779482152
  y: 0.0
  z: 0.0
angular:
  x: 0.0
  y: 0.0
  z: -0.000202520960805123
---
linear:
  x: 0.10174495823048275
  y: 0.0
  z: 0.0
angular:
  x: 0.0
  y: 0.0
  z: -0.002744088469581987
---
linear:
  x: 0.10174495823048275
  y: 0.0
  z: 0.0
angular:
  x: 0.0
  y: 0.0
  z: -0.002744088469581987
---
linear:
  x: 0.10174139384930268
  y: 0.0
  z: 0.0
angular:
  x: 0.0
  y: 0.0
  z: -0.003911069473274934
---
linear:
  x: 0.10173678125978265
  y: 0.0
  z: 0.0
angular:
  x: 0.0
  y: 0.0
  z: -0.001815030006274575
---
linear:
  x: 0.10173259737540408
  y: 0.0
  z: 0.0
angular:
  x: 0.0
  y: 0.0
  z: 0.0004705806106988478
---
linear:
  x: 0.10172960799913928
  y: 0.0
  z: 0.0
angular:
  x: 0.0
  y: 0.0
  z: 0.00461540604359989
---
linear:
  x: 0.10172865621277415
  y: 0.0
  z: 0.0
angular:
  x: 0.0
  y: 0.0
  z: 0.0016093094773466596
---
linear:
  x: 0.10173261294105668
  y: 0.0
  z: 0.0
angular:
  x: 0.0
  y: 0.0
  z: 0.0007262622471450167
---
linear:
  x: 0.10174076430349624
  y: 0.0
  z: 0.0
angular:
  x: 0.0
  y: 0.0
  z: -0.0017091086527049669
---
linear:
  x: 0.101740657263323
  y: 0.0
  z: 0.0
angular:
  x: 0.0
  y: 0.0
  z: -0.0009038136139300552
---
linear:
  x: 0.10173670908353892
  y: 0.0
  z: 0.0
angular:
  x: 0.0
  y: 0.0
  z: -0.0013694719153235625
---
linear:
  x: 0.10173665826653729
  y: 0.0
  z: 0.0
angular:
  x: 0.0
  y: 0.0
  z: 0.0009361965509646631
---
linear:
  x: 0.10173665826653729
  y: 0.0
  z: 0.0
angular:
  x: 0.0
  y: 0.0
  z: 0.0009361965509646631
---
linear:
  x: 0.10173663724519094
  y: 0.0
  z: 0.0
angular:
  x: 0.0
  y: 0.0
  z: 0.0006805984467872507
---
linear:
  x: 0.10173668594384
  y: 0.0
  z: 0.0
angular:
  x: 0.0
  y: 0.0
  z: 0.0011918725774089861
---
linear:
  x: 0.10173663583723934
  y: 0.0
  z: 0.0
angular:
  x: 0.0
  y: 0.0
  z: -0.0006599506744963
---
linear:
  x: 0.10174076430349624
  y: 0.0
  z: 0.0
angular:
  x: 0.0
  y: 0.0
  z: -0.0017091086527049669
---
linear:
  x: 0.101740657263323
  y: 0.0
  z: 0.0
angular:
  x: 0.0
  y: 0.0
  z: -0.0009038136139300552
---
linear:
  x: 0.10173665632918812
  y: 0.0
  z: 0.0
angular:
  x: 0.0
  y: 0.0
  z: -0.00091562995315443
---
linear:
  x: 0.10173680103428007
  y: 0.0
  z: 0.0
angular:
  x: 0.0
  y: 0.0
  z: -0.0019191332566739466
---
linear:
  x: 0.10173663724519094
  y: 0.0
  z: 0.0
angular:
  x: 0.0
  y: 0.0
  z: 0.0006805984467872507
---
linear:
  x: 0.10173337206425988
  y: 0.0
  z: 0.0
angular:
  x: 0.0
  y: 0.0
  z: 0.003930808438262398
---
linear:
  x: 0.10173302203474473
  y: 0.0
  z: 0.0
angular:
  x: 0.0
  y: 0.0
  z: 0.002927449073006165
---
linear:
  x: 0.10174068408844046
  y: 0.0
  z: 0.0
angular:
  x: 0.0
  y: 0.0
  z: -0.0011593968640593528
---
linear:
  x: 0.10174457933739654
  y: 0.0
  z: 0.0
angular:
  x: 0.0
  y: 0.0
  z: -0.000286564736590537
---
linear:
  x: 0.10174512708911992
  y: 0.0
  z: 0.0
angular:
  x: 0.0
  y: 0.0
  z: -0.003293821726141961
---
linear:
  x: 0.10174521606407834
  y: 0.0
  z: 0.0
angular:
  x: 0.0
  y: 0.0
  z: -0.0035493987292565016
---
linear:
  x: 0.10174072318250245
  y: 0.0
  z: 0.0
angular:
  x: 0.0
  y: 0.0
  z: -0.0014535144120886303
---
linear:
  x: 0.10173661455417855
  y: 0.0
  z: 0.0
angular:
  x: 0.0
  y: 0.0
  z: 0.00013092240335904
---
linear:
  x: 0.10173750395917357
  y: 0.0
  z: 0.0
angular:
  x: 0.0
  y: 0.0
  z: 0.0041834766936670814
---
linear:
  x: 0.10173750395917357
  y: 0.0
  z: 0.0
angular:
  x: 0.0
  y: 0.0
  z: 0.0041834766936670814
---
linear:
  x: 0.10174459011264979
  y: 0.0
  z: 0.0
angular:
  x: 0.0
  y: 0.0
  z: -0.0005421525900052417
---
linear:
  x: 0.10175333315163973
  y: 0.0
  z: 0.0
angular:
  x: 0.0
  y: 0.0
  z: -0.004222742183369969
---
linear:
  x: 0.10175333315163973
  y: 0.0
  z: 0.0
angular:
  x: 0.0
  y: 0.0
  z: -0.004222742183369969
---
linear:
  x: 0.10175333315163973
  y: 0.0
  z: 0.0
angular:
  x: 0.0
  y: 0.0
  z: -0.004222742183369969
---
linear:
  x: 0.10175381578105727
  y: 0.0
  z: 0.0
angular:
  x: 0.0
  y: 0.0
  z: -0.0052266355766531864
---
linear:
  x: 0.10175484339078295
  y: 0.0
  z: 0.0
angular:
  x: 0.0
  y: 0.0
  z: -0.006893136019985067
---
linear:
  x: 0.10174947712669256
  y: 0.0
  z: 0.0
angular:
  x: 0.0
  y: 0.0
  z: -0.0043429215635961945
---
linear:
  x: 0.10174089521650027
  y: 0.0
  z: 0.0
angular:
  x: 0.0
  y: 0.0
  z: 0.002344037433850884
---
linear:
  x: 0.10173566315415282
  y: 0.0
  z: 0.0
angular:
  x: 0.0
  y: 0.0
  z: 0.007777611894866551
---
linear:
  x: 0.10173852444856563
  y: 0.0
  z: 0.0
angular:
  x: 0.0
  y: 0.0
  z: 0.006128818670835381
---
linear:
  x: 0.1017525161934741
  y: 0.0
  z: 0.0
angular:
  x: 0.0
  y: 0.0
  z: 0.0013318868417829441
---
linear:
  x: 0.10176426668367114
  y: 0.0
  z: 0.0
angular:
  x: 0.0
  y: 0.0
  z: -0.002440212151266034
---
linear:
  x: 0.10177012932785766
  y: 0.0
  z: 0.0
angular:
  x: 0.0
  y: 0.0
  z: -0.006833959512334195
---
linear:
  x: 0.10177387666399287
  y: 0.0
  z: 0.0
angular:
  x: 0.0
  y: 0.0
  z: -0.006822672179326677
---
linear:
  x: 0.10176945680415755
  y: 0.0
  z: 0.0
angular:
  x: 0.0
  y: 0.0
  z: -0.005786761749943834
---
linear:
  x: 0.10176019028267871
  y: 0.0
  z: 0.0
angular:
  x: 0.0
  y: 0.0
  z: 0.0009007410246292875
---
linear:
  x: 0.10175263511392352
  y: 0.0
  z: 0.0
angular:
  x: 0.0
  y: 0.0
  z: 0.002027649855491889
---
linear:
  x: 0.10176082758845147
  y: 0.0
  z: 0.0
angular:
  x: 0.0
  y: 0.0
  z: 0.003651973194054057
---
linear:
  x: 0.10176776976723252
  y: 0.0
  z: 0.0
angular:
  x: 0.0
  y: 0.0
  z: -0.0005765727540550813
---
linear:
  x: 0.10178108606045218
  y: 0.0
  z: 0.0
angular:
  x: 0.0
  y: 0.0
  z: -0.006504476328790502
---
linear:
  x: 0.10178383123151985
  y: 0.0
  z: 0.0
angular:
  x: 0.0
  y: 0.0
  z: -0.0049298063863218505
---
linear:
  x: 0.10177976609578306
  y: 0.0
  z: 0.0
angular:
  x: 0.0
  y: 0.0
  z: -0.00404610582423458
---
linear:
  x: 0.10178076912059529
  y: 0.0
  z: 0.0
angular:
  x: 0.0
  y: 0.0
  z: -0.006006697152600963
---
linear:
  x: 0.1017793907284713
  y: 0.0
  z: 0.0
angular:
  x: 0.0
  y: 0.0
  z: -0.0029991533359452487
---
linear:
  x: 0.10177538601013195
  y: 0.0
  z: 0.0
angular:
  x: 0.0
  y: 0.0
  z: -0.0017083756615611358
---
linear:
  x: 0.10177893617224516
  y: 0.0
  z: 0.0
angular:
  x: 0.0
  y: 0.0
  z: 0.0002504603825971409
---
linear:
  x: 0.10178292415152534
  y: 0.0
  z: 0.0
angular:
  x: 0.0
  y: 0.0
  z: -0.002545456405413433
---
linear:
  x: 0.1017935312052367
  y: 0.0
  z: 0.0
angular:
  x: 0.0
  y: 0.0
  z: -0.0015533686379261744
---
linear:
  x: 0.10179747804975059
  y: 0.0
  z: 0.0
angular:
  x: 0.0
  y: 0.0
  z: -0.003192991817259936
---
linear:
  x: 0.10180067613339445
  y: 0.0
  z: 0.0
angular:
  x: 0.0
  y: 0.0
  z: -0.0020256000037070327
---
linear:
  x: 0.10180821256131463
  y: 0.0
  z: 0.0
angular:
  x: 0.0
  y: 0.0
  z: -0.00395707030040857
---
linear:
  x: 0.10182004296406406
  y: 0.0
  z: 0.0
angular:
  x: 0.0
  y: 0.0
  z: -0.006928101376654846
---
linear:
  x: 0.1018256019883695
  y: 0.0
  z: 0.0
angular:
  x: 0.0
  y: 0.0
  z: -0.009572006348945727
---
linear:
  x: 0.10182660073765924
  y: 0.0
  z: 0.0
angular:
  x: 0.0
  y: 0.0
  z: -0.006807925106553123
---
linear:
  x: 0.10182146201377817
  y: 0.0
  z: 0.0
angular:
  x: 0.0
  y: 0.0
  z: -0.003210612948760547
---
linear:
  x: 0.10182769197479978
  y: 0.0
  z: 0.0
angular:
  x: 0.0
  y: 0.0
  z: -0.0018417107084885609
---
linear:
  x: 0.10183412948520265
  y: 0.0
  z: 0.0
angular:
  x: 0.0
  y: 0.0
  z: -0.0016513203426946378
---
linear:
  x: 0.10185338408487135
  y: 0.0
  z: 0.0
angular:
  x: 0.0
  y: 0.0
  z: -0.008563316431627518
---
linear:
  x: 0.10186446138386894
  y: 0.0
  z: 0.0
angular:
  x: 0.0
  y: 0.0
  z: -0.007399477157396591
---
linear:
  x: 0.10188013340511733
  y: 0.0
  z: 0.0
angular:
  x: 0.0
  y: 0.0
  z: -0.013834807398454245
---
linear:
  x: 0.1018850631736778
  y: 0.0
  z: 0.0
angular:
  x: 0.0
  y: 0.0
  z: -0.013298221802571725
---
linear:
  x: 0.10188970399094499
  y: 0.0
  z: 0.0
angular:
  x: 0.0
  y: 0.0
  z: -0.014598241492131219
---
linear:
  x: 0.10189117170847167
  y: 0.0
  z: 0.0
angular:
  x: 0.0
  y: 0.0
  z: -0.01555365516738652
---
linear:
  x: 0.10188647124707395
  y: 0.0
  z: 0.0
angular:
  x: 0.0
  y: 0.0
  z: -0.0064558359893518436
---
linear:
  x: 0.10188751122866582
  y: 0.0
  z: 0.0
angular:
  x: 0.0
  y: 0.0
  z: -0.0029899396295664086
---
linear:
  x: 0.10190215816130782
  y: 0.0
  z: 0.0
angular:
  x: 0.0
  y: 0.0
  z: -0.006181304644130582
---
linear:
  x: 0.1019151921226908
  y: 0.0
  z: 0.0
angular:
  x: 0.0
  y: 0.0
  z: -0.009830627682862038
---
linear:
  x: 0.10193825696000124
  y: 0.0
  z: 0.0
angular:
  x: 0.0
  y: 0.0
  z: -0.014945889643997028
---
linear:
  x: 0.1019573734734228
  y: 0.0
  z: 0.0
angular:
  x: 0.0
  y: 0.0
  z: -0.01838298790166467
---
linear:
  x: 0.10196378706146209
  y: 0.0
  z: 0.0
angular:
  x: 0.0
  y: 0.0
  z: -0.01843329121196385
---
linear:
  x: 0.10197433955092179
  y: 0.0
  z: 0.0
angular:
  x: 0.0
  y: 0.0
  z: -0.019690908993393753
---
linear:
  x: 0.10197454915711726
  y: 0.0
  z: 0.0
angular:
  x: 0.0
  y: 0.0
  z: -0.016641481949850847
---
linear:
  x: 0.10197862593755101
  y: 0.0
  z: 0.0
angular:
  x: 0.0
  y: 0.0
  z: -0.014482967854021232
---
linear:
  x: 0.10199429955881952
  y: 0.0
  z: 0.0
angular:
  x: 0.0
  y: 0.0
  z: -0.017550671808453072
---
linear:
  x: 0.10201624714630508
  y: 0.0
  z: 0.0
angular:
  x: 0.0
  y: 0.0
  z: -0.023286759561383808
---
linear:
  x: 0.10202459327858744
  y: 0.0
  z: 0.0
angular:
  x: 0.0
  y: 0.0
  z: -0.022848608144607763
---
linear:
  x: 0.10203694970369798
  y: 0.0
  z: 0.0
angular:
  x: 0.0
  y: 0.0
  z: -0.025450092038565606
---
linear:
  x: 0.10204236525528261
  y: 0.0
  z: 0.0
angular:
  x: 0.0
  y: 0.0
  z: -0.025334401740343775
---
linear:
  x: 0.10203633372783481
  y: 0.0
  z: 0.0
angular:
  x: 0.0
  y: 0.0
  z: -0.02103207585382849
---
linear:
  x: 0.10204805568560334
  y: 0.0
  z: 0.0
angular:
  x: 0.0
  y: 0.0
  z: -0.024346989710380098
---
linear:
  x: 0.10207604581504003
  y: 0.0
  z: 0.0
angular:
  x: 0.0
  y: 0.0
  z: -0.0314366252657002
---
linear:
  x: 0.10207896972523552
  y: 0.0
  z: 0.0
angular:
  x: 0.0
  y: 0.0
  z: -0.03156168162432163
---
linear:
  x: 0.10207896972523552
  y: 0.0
  z: 0.0
angular:
  x: 0.0
  y: 0.0
  z: -0.03156168162432163
---
linear:
  x: 0.10207208118077667
  y: 0.0
  z: 0.0
angular:
  x: 0.0
  y: 0.0
  z: -0.028925468875582203
---
linear:
  x: 0.10207151079211402
  y: 0.0
  z: 0.0
angular:
  x: 0.0
  y: 0.0
  z: -0.028304544722105928
---
linear:
  x: 0.10210630525958311
  y: 0.0
  z: 0.0
angular:
  x: 0.0
  y: 0.0
  z: -0.03755398990905626
---
linear:
  x: 0.10211615001869678
  y: 0.0
  z: 0.0
angular:
  x: 0.0
  y: 0.0
  z: -0.039740933640807836
---
linear:
  x: 0.10209417559522543
  y: 0.0
  z: 0.0
angular:
  x: 0.0
  y: 0.0
  z: -0.03459276416608864
---
linear:
  x: 0.10208033676632003
  y: 0.0
  z: 0.0
angular:
  x: 0.0
  y: 0.0
  z: -0.03198303198764451
---
linear:
  x: 0.10208330276932805
  y: 0.0
  z: 0.0
angular:
  x: 0.0
  y: 0.0
  z: -0.03362131977230466
---
linear:
  x: 0.10209666273176886
  y: 0.0
  z: 0.0
angular:
  x: 0.0
  y: 0.0
  z: -0.037643570273388556
---
linear:
  x: 0.10210258759294728
  y: 0.0
  z: 0.0
angular:
  x: 0.0
  y: 0.0
  z: -0.04042569557222499
---
linear:
  x: 0.10206354568555201
  y: 0.0
  z: 0.0
angular:
  x: 0.0
  y: 0.0
  z: -0.03166065457992362
---
linear:
  x: 0.10206695272290003
  y: 0.0
  z: 0.0
angular:
  x: 0.0
  y: 0.0
  z: -0.03474402531133637
---
linear:
  x: 0.10205854521116878
  y: 0.0
  z: 0.0
angular:
  x: 0.0
  y: 0.0
  z: -0.033159236050235304
---
linear:
  x: 0.10207072976691658
  y: 0.0
  z: 0.0
angular:
  x: 0.0
  y: 0.0
  z: -0.038549424869991855
---
linear:
  x: 0.10205732425670744
  y: 0.0
  z: 0.0
angular:
  x: 0.0
  y: 0.0
  z: -0.03670371541463041
---
linear:
  x: 0.10198671636389839
  y: 0.0
  z: 0.0
angular:
  x: 0.0
  y: 0.0
  z: -0.016192533205148737
---
linear:
  x: 0.10197150289024602
  y: 0.0
  z: 0.0
angular:
  x: 0.0
  y: 0.0
  z: -0.01195312877815195
---
linear:
  x: 0.10198053807654905
  y: 0.0
  z: 0.0
angular:
  x: 0.0
  y: 0.0
  z: -0.018893728880236244
---
linear:
  x: 0.10200092863747559
  y: 0.0
  z: 0.0
angular:
  x: 0.0
  y: 0.0
  z: -0.026139616167070785
---
linear:
  x: 0.10203450835808225
  y: 0.0
  z: 0.0
angular:
  x: 0.0
  y: 0.0
  z: -0.036624703118893154
---
linear:
  x: 0.102013538349955
  y: 0.0
  z: 0.0
angular:
  x: 0.0
  y: 0.0
  z: -0.033430730792855835
---
linear:
  x: 0.10197125271902473
  y: 0.0
  z: 0.0
angular:
  x: 0.0
